{"id": "e2cacc83-d8a1-4288-ae9e-67e971994a43", "name": "Peter Chapman", "location": "711-2880 Nulla St, Mankato Mississippi 96522", "phone": "(257) 563-7401"}
{"id": "e2cacc83-d8a1-4288-ae9e-67e971994a44", "name": "Iris Watson", "location": "P.O. Box 283 8562 Fusce Rd, Frederick Nebraska 20620", "phone": "(372) 587-2335"}
{"id": "e2cacc83-d8a1-4288-ae9e-67e971994a45", "name": "Celeste Slater", "location": "606-3727 Ullamcorper. Street, Roseville NH 11523", "phone": "(786) 713-8616"}
{"id": "e2cacc83-d8a1-4288-ae9e-67e971994a46", "name": "Theodore Lowe", "location": "Ap #867-859 Sit Rd, Azusa New York 39531", "phone": "(793) 151-6230"}
{"id": "e2cacc83-d8a1-4288-ae9e-67e971994a47", "name": "Calista Wise", "location": "7292 Dictum Av, San Antonio MI 47096", "phone": "(492) 709-6392"}
{"id": "e2cacc83-d8a1-4288-ae9e-67e971994a48", "name": "Peter  Olsen", "location": "Ap #651-8679 Sodales Av, Tamuning PA 10855", "phone": "(654) 393-5734"}
{"id": "e2cacc83-d8a1-4288-ae9e-67e971994a49", "name": "Forrest Ray", "location": "191-103 Integer Rd, Corona New Mexico 08219", "phone": "(404) 960-3807"}
{"id": "e2cacc83-d8a1-4288-ae9e-67e971994a4a", "name": "Hiroko Potter", "location": "P.O. Box 887 2508 Dolor. Av, Muskegon KY 12482", "phone": "(314) 244-6306"}
{"id": "e2cacc83-d8a1-4288-ae9e-67e971994a4b", "name": "Nyssa Vazquez", "location": "511-5762 At Rd, Chelsea MI 67708", "phone": "(947) 278-5929"}
{"id": "e2cacc83-d8a1-4288-ae9e-67e971994a4c", "name": "Lawrence Moreno", "location": "935-9940 Tortor. Street, Santa Rosa MN 98804", "phone": "(684) 579-1879"}
{"id": "e2cacc83-d8a1-4288-ae9e-67e971994a4d", "name": "Ina Moran", "location": "P.O. Box 929 4189 Nunc Road, Lebanon KY 69409", "phone": "(389) 737-2852"}
{"id": "e2cacc83-d8a1-4288-ae9e-67e971994a4e", "name": "Peter de Vocht", "location": "5587 Nunc. Avenue, Erie Rhode Island 24975", "phone": "(660) 663-4518"}
{"id": "e2cacc83-d8a1-4288-ae9e-67e971994a4f", "name": "Hedy Greene", "location": "Ap #696-3279 Viverra. Avenue, Latrobe DE 38100", "phone": "(608) 265-2215"}
{"id": "e2cacc83-d8a1-4288-ae9e-67e971994a50", "name": "Melvin Porter", "location": "P.O. Box 132 1599 Curabitur Rd, Bandera South Dakota 45149", "phone": "(959) 119-8364"}
{"id": "e2cacc83-d8a1-4288-ae9e-67e971994a51", "name": "Keefe Sellers", "location": "347-7666 Iaculis St, Woodruff SC 49854", "phone": "(468) 353-2641"}
{"id": "e2cacc83-d8a1-4288-ae9e-67e971994a52", "name": "Joan Romero", "location": "666-4366 Lacinia Avenue, Idaho Falls Ohio 19253", "phone": "(248) 675-4007"}
{"id": "e2cacc83-d8a1-4288-ae9e-67e971994a53", "name": "Davis Patrick", "location": "P.O. Box 147 2546 Sociosqu Rd, Bethlehem Utah 02913", "phone": "(939) 353-1107"}
{"id": "e2cacc83-d8a1-4288-ae9e-67e971994a54", "name": "Leilani Boyer", "location": "557-6308 Lacinia Road, San Bernardino ND 09289", "phone": "(570) 873-7090"}
{"id": "e2cacc83-d8a1-4288-ae9e-67e971994a55", "name": "Colby Bernard", "location": "Ap #285-7193 Ullamcorper Avenue, Amesbury HI 93373", "phone": "(302) 259-2375"}
{"id": "e2cacc83-d8a1-4288-ae9e-67e971994a56", "name": "Bryar Pitts", "location": "5543 Aliquet St, Fort Dodge GA 20783", "phone": "(717) 450-4729"}
{"id": "e2cacc83-d8a1-4288-ae9e-67e971994a57", "name": "Rahim Henderson", "location": "5037 Diam Rd, Daly City Ohio 90255", "phone": "(453) 391-4650"}
{"id": "e2cacc83-d8a1-4288-ae9e-67e971994a58", "name": "Noelle Adams", "location": "6351 Fringilla Avenue, Gardena Colorado 37547", "phone": "(559) 104-5475"}
{"id": "e2cacc83-d8a1-4288-ae9e-67e971994a59", "name": "Lillith Daniel", "location": "935-1670 Neque. St, Centennial Delaware 48432", "phone": "(387) 142-9434"}
{"id": "e2cacc83-d8a1-4288-ae9e-67e971994a60", "name": "Adria Russell", "location": "414-7533 Non Rd, Miami Beach North Dakota 58563", "phone": "(516) 745-4496"}
{"id": "e2cacc83-d8a1-4288-ae9e-67e971994a61", "name": "Hilda Haynes", "location": "778-9383 Suspendisse Av, Weirton IN 93479", "phone": "(326) 677-3419"}
{"id": "e2cacc83-d8a1-4288-ae9e-67e971994a62", "name": "Sheila Mcintosh", "location": "P.O. Box 360 4407 Et Rd, Santa Monica FL 30309", "phone": "(746) 679-2470"}
{"id": "e2cacc83-d8a1-4288-ae9e-67e971994a63", "name": "Rebecca Chambers", "location": "P.O. Box 813 5982 Sit Ave, Liberal Vermont 51324", "phone": "(455) 430-0989"}
{"id": "e2cacc83-d8a1-4288-ae9e-67e971994a64", "name": "Christian Emerson", "location": "P.O. Box 886 4118 Arcu St, Rolling Hills Georgia 92358", "phone": "(490) 936-4694"}
{"id": "e2cacc83-d8a1-4288-ae9e-67e971994a65", "name": "Nevada Ware", "location": "P.O. Box 597 4156 Tincidunt Ave, Green Bay Indiana 19759", "phone": "(985) 834-8285"}
{"id": "e2cacc83-d8a1-4288-ae9e-67e971994a66", "name": "Margaret Joseph", "location": "P.O. Box 508 3919 Gravida St, Tamuning Washington 55797", "phone": "(662) 661-1446"}
{"id": "e2cacc83-d8a1-4288-ae9e-67e971994a67", "name": "Edward Nieves", "location": "928-3313 Vel Av, Idaho Falls Rhode Island 37232", "phone": "(802) 668-8240"}
{"id": "e2cacc83-d8a1-4288-ae9e-67e971994a68", "name": "Imani Talley", "location": "P.O. Box 262 4978 Sit St, Yigo Massachusetts 50654", "phone": "(477) 768-9247"}
{"id": "e2cacc83-d8a1-4288-ae9e-67e971994a69", "name": "Bertha Riggs", "location": "P.O. Box 206 6639 In St, Easthampton TN 31626", "phone": "(791) 239-9057"}
{"id": "e2cacc83-d8a1-4288-ae9e-67e971994a70", "name": "Wallace Ross", "location": "313 Pellentesque Ave, Villa Park Hawaii 43526", "phone": "(832) 109-0213"}
{"id": "e2cacc83-d8a1-4288-ae9e-67e971994a71", "name": "Chester Bennett", "location": "3476 Aliquet. Ave, Minot AZ 95302", "phone": "(837) 196-3274"}
{"id": "e2cacc83-d8a1-4288-ae9e-67e971994a72", "name": "Castor Richardson", "location": "P.O. Box 902 3472 Ullamcorper Street, Lynchburg DC 29738", "phone": "(268) 442-2428"}
{"id": "e2cacc83-d8a1-4288-ae9e-67e971994a73", "name": "Sonya Jordan", "location": "Ap #443-336 Ullamcorper. Street, Visalia VA 54886", "phone": "(850) 676-5117"}
{"id": "e2cacc83-d8a1-4288-ae9e-67e971994a74", "name": "Peter Mcguire", "location": "574-8633 Arcu Street, San Fernando ID 77373", "phone": "(861) 546-5032"}
{"id": "e2cacc83-d8a1-4288-ae9e-67e971994a75", "name": "Malcolm Long", "location": "9291 Proin Road, Lake Charles Maine 11292", "phone": "(176) 805-4108"}
{"id": "e2cacc83-d8a1-4288-ae9e-67e971994a76", "name": "Raymond Levy", "location": "Ap #643-7006 Risus St, Beaumont New Mexico 73585", "phone": "(715) 912-6931"}
{"id": "e2cacc83-d8a1-4288-ae9e-67e971994a77", "name": "Hedley Ingram", "location": "737-2580 At Street, Independence Texas 87535", "phone": "(993) 554-0563"}
{"id": "e2cacc83-d8a1-4288-ae9e-67e971994a78", "name": "David Mathews", "location": "1011 Malesuada Road, Moscow Kentucky 77382", "phone": "(357) 616-5411"}
{"id": "e2cacc83-d8a1-4288-ae9e-67e971994a79", "name": "Xyla Cash", "location": "969-1762 Tincidunt Rd, Boise CT 35282", "phone": "(121) 347-0086"}
{"id": "e2cacc83-d8a1-4288-ae9e-67e971994a7a", "name": "Madeline Gregory", "location": "977-4841 Ut Ave, Walla Walla Michigan 82776", "phone": "(304) 506-6314"}
{"id": "e2cacc83-d8a1-4288-ae9e-67e971994a7b", "name": "Griffith Daniels", "location": "6818 Eget St, Tacoma AL 92508", "phone": "(425) 288-2332"}
{"id": "e2cacc83-d8a1-4288-ae9e-67e971994a7c", "name": "Anne Beasley", "location": "987-4223 Urna St, Savannah Illinois 85794", "phone": "(145) 987-4962"}
{"id": "e2cacc83-d8a1-4288-ae9e-67e971994a7d", "name": "Chaney Bennett", "location": "P.O. Box 721 902 Dolor Rd, Fremont AK 19408", "phone": "(187) 582-9707"}
{"id": "e2cacc83-d8a1-4288-ae9e-67e971994a7e", "name": "Daniel Bernard", "location": "P.O. Box 567 1561 Duis Rd, Pomona TN 08609", "phone": "(750) 558-3965"}
{"id": "e2cacc83-d8a1-4288-ae9e-67e971994a7f", "name": "Willow Hunt", "location": "Ap #784-1887 Lobortis Ave, Cudahy Ohio 31522", "phone": "(492) 467-3131"}
{"id": "e2cacc83-d8a1-4288-ae9e-67e971994a80", "name": "Judith Floyd", "location": "361-7936 Feugiat St, Williston Nevada 58521", "phone": "(774) 914-2510"}
{"id": "e2cacc83-d8a1-4288-ae9e-67e971994a81", "name": "Seth Farley", "location": "6216 Aenean Avenue, Seattle Utah 81202", "phone": "(888) 106-8550"}
{"id": "e2cacc83-d8a1-4288-ae9e-67e971994a82", "name": "Zephania Sanders", "location": "3714 Nascetur St, Hawthorne Louisiana 10626", "phone": "(539) 567-3573"}
{"id": "e2cacc83-d8a1-4288-ae9e-67e971994a83", "name": "Peter Merritt", "location": "Ap #938-5470 Posuere Ave, Chickasha LA 58520", "phone": "(693) 337-2849"}
{"id": "e2cacc83-d8a1-4288-ae9e-67e971994a84", "name": "Craig Williams", "location": "P.O. Box 372 5634 Montes Rd, Springdale MO 57692", "phone": "(545) 604-9386"}
{"id": "e2cacc83-d8a1-4288-ae9e-67e971994a85", "name": "Lee Preston", "location": "981 Eget Rd, Clemson GA 04645", "phone": "(221) 156-5026"}
{"id": "e2cacc83-d8a1-4288-ae9e-67e971994a86", "name": "Katelyn Cooper", "location": "6059 Sollicitudin Road, Burlingame Colorado 26278", "phone": "(414) 876-0865"}
{"id": "e2cacc83-d8a1-4288-ae9e-67e971994a87", "name": "Lacy Eaton", "location": "1379 Nulla. Av, Asbury Park Montana 69679", "phone": "(932) 726-8645"}
{"id": "e2cacc83-d8a1-4288-ae9e-67e971994a88", "name": "Driscoll Leach", "location": "P.O. Box 120 2410 Odio Avenue, Pass Christian Delaware 03869", "phone": "(726) 710-9826"}
{"id": "e2cacc83-d8a1-4288-ae9e-67e971994a89", "name": "Merritt Watson", "location": "P.O. Box 686 7014 Amet Street, Corona Oklahoma 55246", "phone": "(622) 594-1662"}
{"id": "e2cacc83-d8a1-4288-ae9e-67e971994a90", "name": "Nehru Holmes", "location": "P.O. Box 547 4764 Sed Road, Grand Rapids CT 87323", "phone": "(948) 600-8503"}
{"id": "e2cacc83-d8a1-4288-ae9e-67e971994a92", "name": "Quamar Rivera", "location": "427-5827 Ac St, Schaumburg Arkansas 84872", "phone": "(605) 900-7508"}
{"id": "e2cacc83-d8a1-4288-ae9e-67e971994a93", "name": "Hiram Mullins", "location": "754-6427 Nunc Ave, Kennewick AL 41329", "phone": "(716) 977-5775"}
{"id": "e2cacc83-d8a1-4288-ae9e-67e971994a94", "name": "Kim Fletcher", "location": "Ap #345-3847 Metus Road, Independence CO 30135", "phone": "(368) 239-8275"}
{"id": "e2cacc83-d8a1-4288-ae9e-67e971994a95", "name": "Rigel Koch", "location": "P.O. Box 558 9561 Lacus. Road, Laughlin Hawaii 99602", "phone": "(725) 342-0650"}
{"id": "e2cacc83-d8a1-4288-ae9e-67e971994a96", "name": "Jeanette Sharpe", "location": "Ap #364-2006 Ipsum Avenue, Wilmington Ohio 91750", "phone": "(711) 993-5187"}
{"id": "e2cacc83-d8a1-4288-ae9e-67e971994a97", "name": "Dahlia Lee", "location": "1293 Tincidunt Street, Atwater Pennsylvania 76865", "phone": "(882) 399-5084"}
{"id": "e2cacc83-d8a1-4288-ae9e-67e971994a98", "name": "Howard Hayden", "location": "P.O. Box 847 8019 Facilisis Street, Joliet SC 73490", "phone": "(287) 755-9948"}
{"id": "e2cacc83-d8a1-4288-ae9e-67e971994a99", "name": "Hyatt Kramer", "location": "1011 Massa Av, Kent ID 63725", "phone": "(659) 551-3389"}
{"id": "e2cacc83-d8a1-4288-ae9e-67e971994aa0", "name": "Sonya Ray", "location": "Ap #315-8441 Eleifend Street, Fairbanks RI 96892", "phone": "(275) 730-6868"}
{"id": "e2cacc83-d8a1-4288-ae9e-67e971994aa1", "name": "Cara Whitehead", "location": "4005 Praesent St, Torrance Wyoming 22767", "phone": "(725) 757-4047"}
{"id": "e2cacc83-d8a1-4288-ae9e-67e971994aa2", "name": "Blythe Carroll", "location": "7709 Justo. Ave, Princeton TX 77987", "phone": "(314) 882-1496"}
{"id": "e2cacc83-d8a1-4288-ae9e-67e971994aa3", "name": "Dale Griffin", "location": "P.O. Box 854 8580 In Ave, Revere South Dakota 43841", "phone": "(639) 360-7590"}
{"id": "e2cacc83-d8a1-4288-ae9e-67e971994aa4", "name": "McKenzie Hernandez", "location": "Ap #367-674 Mi Street, Greensboro VT 40684", "phone": "(168) 222-1592"}
{"id": "e2cacc83-d8a1-4288-ae9e-67e971994aa5", "name": "Haviva Holcomb", "location": "P.O. Box 642 3450 In Road, Isle of Palms New York 03828", "phone": "(896) 303-1164"}
{"id": "e2cacc83-d8a1-4288-ae9e-67e971994aa6", "name": "Ezra Duffy", "location": "Ap #782-7348 Dis Rd, Austin KY 50710", "phone": "(203) 982-6130"}
{"id": "e2cacc83-d8a1-4288-ae9e-67e971994aa7", "name": "Eleanor Jennings", "location": "9631 Semper Ave, Astoria NJ 66309", "phone": "(906) 217-1470"}
{"id": "e2cacc83-d8a1-4288-ae9e-67e971994aa8", "name": "Remedios Hester", "location": "487-5787 Mollis St, City of Industry Louisiana 67973", "phone": "(614) 514-1269"}
{"id": "e2cacc83-d8a1-4288-ae9e-67e971994aa9", "name": "Jasper Carney", "location": "1195 Lobortis Rd, New Orleans New Hampshire 71983", "phone": "(763) 409-5446"}
{"id": "e2cacc83-d8a1-4288-ae9e-67e971994a00", "name": "Vielka Nielsen", "location": "Ap #517-7326 Elementum Rd, Fort Smith North Dakota 79637", "phone": "(836) 292-5324"}
{"id": "e2cacc83-d8a1-4288-ae9e-67e971994a01", "name": "Wilma Pace", "location": "Ap #676-6532 Odio Rd, Darlington CO 06963", "phone": "(926) 709-3295"}
{"id": "e2cacc83-d8a1-4288-ae9e-67e971994a02", "name": "Palmer Gay", "location": "557-2026 Purus St, Watertown TN 07367", "phone": "(963) 356-9268"}
{"id": "e2cacc83-d8a1-4288-ae9e-67e971994a03", "name": "Lyle Sutton", "location": "Ap #250-9843 Elementum St, South Gate Missouri 68999", "phone": "(736) 522-8584"}
{"id": "e2cacc83-d8a1-4288-ae9e-67e971994a04", "name": "Ina Burt", "location": "Ap #130-1685 Ut Street, Tyler KS 73510", "phone": "(410) 483-0352"}
{"id": "e2cacc83-d8a1-4288-ae9e-67e971994a05", "name": "Cleo Best", "location": "282-8351 Tincidunt Ave, Sedalia Utah 53700", "phone": "(252) 204-1434"}
{"id": "e2cacc83-d8a1-4288-ae9e-67e971994a06", "name": "Hu Park", "location": "1429 Netus Rd, Reedsport NY 48247", "phone": "(874) 886-4174"}
{"id": "e2cacc83-d8a1-4288-ae9e-67e971994a07", "name": "Liberty Walton", "location": "343-6527 Purus. Avenue, Logan NV 12657", "phone": "(581) 379-7573"}
{"id": "e2cacc83-d8a1-4288-ae9e-67e971994a08", "name": "Aaron Trujillo", "location": "Ap #146-3132 Cras Rd, Kingsport NH 56618", "phone": "(983) 632-8597"}
{"id": "e2cacc83-d8a1-4288-ae9e-67e971994a09", "name": "Elmo Lopez", "location": "Ap #481-7473 Cum Rd, Yorba Linda South Carolina 28423", "phone": "(295) 983-3476"}
{"id": "e2cacc83-d8a1-4288-ae9e-67e971994a10", "name": "Emerson Espinoza", "location": "Ap #247-5577 Tincidunt St, Corpus Christi WI 97020", "phone": "(873) 392-8802"}
{"id": "e2cacc83-d8a1-4288-ae9e-67e971994a11", "name": "Daniel Malone", "location": "2136 Adipiscing Av, Lima RI 93490", "phone": "(360) 669-3923"}
{"id": "e2cacc83-d8a1-4288-ae9e-67e971994a12", "name": "Dante Bennett", "location": "481-8762 Nulla Street, Dearborn OR 62401", "phone": "(840) 987-9449"}
{"id": "e2cacc83-d8a1-4288-ae9e-67e971994a13", "name": "Sade Higgins", "location": "Ap #287-3260 Ut St, Wilmington OR 05182", "phone": "(422) 517-6053"}
{"id": "e2cacc83-d8a1-4288-ae9e-67e971994a14", "name": "Zorita Anderson", "location": "1964 Facilisis Avenue, Bell Gardens Texas 87065", "phone": "(126) 940-2753"}
{"id": "e2cacc83-d8a1-4288-ae9e-67e971994a15", "name": "Jordan Calderon", "location": "430-985 Eleifend St, Duluth Washington 92611", "phone": "(427) 930-5255"}
{"id": "e2cacc83-d8a1-4288-ae9e-67e971994a16", "name": "Ivor Delgado", "location": "Ap #310-1678 Ut Av, Santa Barbara MT 88317", "phone": "(689) 721-5145"}
{"id": "e2cacc83-d8a1-4288-ae9e-67e971994a17", "name": "Pascale Patton", "location": "P.O. Box 399 4275 Amet Street, West Allis NC 36734", "phone": "(676) 334-2174"}
{"id": "e2cacc83-d8a1-4288-ae9e-67e971994a18", "name": "Nasim Strong", "location": "Ap #630-3889 Nulla. Street, Watervliet Oklahoma 70863", "phone": "(437) 994-5270"}
{"id": "e2cacc83-d8a1-4288-ae9e-67e971994a19", "name": "Keaton Underwood", "location": "Ap #636-8082 Arcu Avenue, Thiensville Maryland 19587", "phone": "(564) 908-6970"}
{"id": "e2cacc83-d8a1-4288-ae9e-67e971994a20", "name": "Keegan Blair", "location": "Ap #761-2515 Egestas. Rd, Manitowoc TN 07528", "phone": "(577) 333-6244"}
{"id": "e2cacc83-d8a1-4288-ae9e-67e971994a21", "name": "Tamara Howe", "location": "3415 Lobortis. Avenue, Rocky Mount WA 48580", "phone": "(655) 840-6139"}
